City_ID,City,Lat,Lng,Max Temp,Humidity,Cloudiness,Wind Speed,Country,Date
0,bardai,11.65,7.2333,34.5,13,96,3.81,NG,1699622119
1,jamestown,42.097,-79.2353,8.08,68,0,3.13,US,1699622021
2,dudinka,69.4058,86.1778,-7.4,93,100,12.07,RU,1699622120
3,stanley,54.868,-1.6985,8.07,74,20,4.63,GB,1699621942
4,bethel,41.3712,-73.414,9.72,67,40,3.09,US,1699621975
5,labytnangi,66.6572,66.4183,-8.93,94,33,3.26,RU,1699622123
6,coquimbo,-29.9533,-71.3436,14.87,94,100,1.56,CL,1699622048
7,laguna,38.421,-121.4238,11.16,86,0,0.0,US,1699622125
8,hawaiian paradise park,19.5933,-154.9731,22.24,91,75,4.12,US,1699622125
9,puerto natales,-51.7236,-72.4875,14.25,47,75,4.12,CL,1699622126
10,kudat,6.8837,116.8477,25.96,100,91,1.54,MY,1699622127
11,san ignacio de velasco,-16.3667,-60.95,32.02,46,100,3.52,BO,1699622128
12,fruita,39.1589,-108.729,1.62,48,0,5.14,US,1699622130
13,adamstown,-25.066,-130.1015,21.9,85,100,5.84,PN,1699622131
14,tralee,52.2704,-9.7026,12.14,76,75,2.57,IE,1699622132
15,erenhot,43.6475,111.9767,-8.54,35,0,0.91,CN,1699622133
16,merizo village,13.2658,144.6691,28.85,80,82,7.62,GU,1699622134
17,ushuaia,-54.8,-68.3,13.79,47,0,1.79,AR,1699621851
18,remire-montjoly,4.9167,-52.2667,29.27,70,6,5.06,GF,1699622136
19,saudarkrokur,65.7461,-19.6394,-2.38,72,22,4.13,IS,1699622137
20,la ronge,55.1001,-105.2842,-1.86,86,100,3.09,CA,1699622138
21,boende,-0.2167,20.8667,30.88,55,52,1.18,CD,1699622139
22,kenai,60.5544,-151.2583,-2.73,97,100,1.54,US,1699622139
23,port-aux-francais,-49.35,70.2167,6.42,98,100,12.73,TF,1699622140
24,smithers,54.7804,-127.1743,1.18,93,100,2.06,CA,1699622141
25,hingham,42.2418,-70.8898,7.24,89,75,6.17,US,1699622142
26,waitangi,-43.9535,-176.5597,7.68,82,100,0.89,NZ,1699622143
27,iqaluit,63.7506,-68.5145,-11.15,73,40,0.0,CA,1699622144
28,nungua,5.6011,-0.0771,31.23,70,75,5.66,GH,1699622145
29,pueblo nuevo,23.3833,-105.3833,11.12,82,82,2.48,MX,1699622145
30,borskoye,53.0333,51.7167,7.23,92,100,3.73,RU,1699622146
31,nuuk,64.1835,-51.7216,-5.66,79,0,5.66,GL,1699622037
32,albany,42.6001,-73.9662,7.35,66,99,3.38,US,1699621980
33,yellowknife,62.456,-114.3525,2.45,96,40,7.72,CA,1699622002
34,nagqu,31.5,92.0,-3.21,62,100,1.66,CN,1699622149
35,blackmans bay,-43.0167,147.3167,13.62,92,75,0.53,AU,1699622150
36,mari-turek,56.7895,49.6235,2.53,96,100,6.83,RU,1699622151
37,chonchi,-42.6128,-73.8092,11.73,65,19,1.79,CL,1699622152
38,severo-yeniseyskiy,60.3725,93.0408,-14.12,94,11,1.79,RU,1699622153
39,rosetta,31.4044,30.4164,23.51,66,93,4.93,EG,1699622154
40,hermanus,-34.4187,19.2345,20.53,71,100,4.32,ZA,1699622154
41,ilulissat,69.2167,-51.1,-5.99,58,75,9.26,GL,1699622155
42,bubaque,11.2833,-15.8333,27.93,47,100,3.24,GW,1699622156
43,ciudad constitucion,25.0369,-111.6644,20.51,68,0,2.46,MX,1699622157
44,west island,-12.1568,96.8225,26.99,83,75,7.2,CC,1699622158
45,iskateley,67.6803,53.1512,-8.88,93,20,3.13,RU,1699622159
46,miranda,3.2499,-76.2281,23.07,77,95,0.94,CO,1699622160
47,ballina,-28.8667,153.5667,15.43,85,84,2.99,AU,1699622161
48,margaret river,-33.95,115.0667,14.27,77,0,5.82,AU,1699622161
49,grytviken,-54.2811,-36.5092,3.09,93,100,1.15,GS,1699622162
50,puerto ayora,-0.7393,-90.3518,24.75,90,84,4.47,EC,1699622169
51,calatagan,13.8833,120.65,27.04,80,9,5.6,PH,1699622049
52,ulladulla,-35.35,150.4667,17.09,95,40,4.28,AU,1699622171
53,molde,62.7375,7.1591,4.91,75,0,6.69,NO,1699622172
54,jiangzi,28.95,89.6333,0.86,43,4,3.24,CN,1699622173
55,usinsk,65.9939,57.5281,-2.18,95,100,5.81,RU,1699622173
56,isafjordur,66.0755,-23.124,-0.98,80,40,0.0,IS,1699622174
57,bagarji,27.756,68.7524,26.0,53,0,0.0,PK,1699622175
58,al jawf,29.5,38.75,28.62,22,0,2.26,SA,1699622176
59,ca mau,9.1769,105.15,24.9,95,97,2.18,VN,1699622177
60,yung shue wan,22.2333,114.1167,27.04,84,32,0.89,HK,1699622178
61,sal rei,16.1833,-22.9167,28.11,57,40,7.2,CV,1699622179
62,luumaki,60.9262,27.5814,6.03,91,100,3.81,FI,1699622180
63,kerikeri,-35.2268,173.9474,10.48,92,16,0.57,NZ,1699622120
64,forster,-32.1667,152.5167,19.1,87,11,5.59,AU,1699622181
65,el bauga,18.262,33.9081,35.67,22,2,4.2,SD,1699622183
66,firuzabad,28.8438,52.5707,21.68,29,0,2.74,IR,1699622184
67,nar'yan-mar,67.6713,53.087,-8.83,93,21,3.13,RU,1699622185
68,leninogorsk,54.6026,52.4609,6.58,86,100,5.69,RU,1699622186
69,longyearbyen,78.2186,15.6401,-7.09,73,75,2.57,SJ,1699622187
70,bilibino,68.0546,166.4372,-24.46,100,100,0.13,RU,1699622187
71,new norfolk,-42.7826,147.0587,14.28,95,97,1.19,AU,1699622188
72,hasaki,35.7333,140.8333,15.22,87,100,4.51,JP,1699622189
73,iquique,-20.2208,-70.1431,22.08,66,54,4.06,CL,1699621934
74,kalemie,-5.9475,29.1947,28.49,55,98,1.98,CD,1699622192
75,arkhangel'sk,64.5401,40.5433,-2.15,89,94,3.37,RU,1699622193
76,anadyr,64.75,177.4833,-14.72,84,0,5.0,RU,1699622194
77,fale old settlement,-9.3852,-171.2468,28.65,78,99,5.49,TK,1699622195
78,dwarka,22.2394,68.9678,28.6,58,5,4.71,IN,1699622196
79,port elizabeth,-33.918,25.5701,25.17,61,0,6.69,ZA,1699622197
80,badger,64.8,-147.5333,-6.05,88,100,1.54,US,1699622198
81,constantia,44.1833,28.65,16.5,61,99,8.24,RO,1699622059
82,klyuchi,52.2667,79.1667,7.0,74,99,5.18,RU,1699622200
83,acapulco de juarez,16.8634,-99.8901,25.91,86,18,1.84,MX,1699622200
84,newman,37.3138,-121.0208,4.13,50,100,1.38,US,1699622201
85,tromso,69.6496,18.957,0.01,93,75,1.54,NO,1699622065
86,port mathurin,-19.6833,63.4167,25.44,75,4,5.37,MU,1699622203
87,andergrove,-21.0833,149.1833,22.03,76,18,4.2,AU,1699622204
88,atafu village,-8.5421,-172.5159,28.62,77,42,5.65,TK,1699622204
89,rongelap,11.1635,166.8941,28.06,78,100,7.7,MH,1699622206
90,antsiranana,-12.2787,49.2917,29.19,64,16,5.03,MG,1699622207
91,bressanone,46.715,11.656,10.11,89,94,0.75,IT,1699622208
92,paramonga,-10.6667,-77.8333,19.33,84,97,3.89,PE,1699622209
93,revda,56.801,59.9303,3.85,94,100,4.44,RU,1699622210
94,happy valley-goose bay,53.3168,-60.3315,-2.83,74,100,4.63,CA,1699622211
95,saint-joseph,-21.3667,55.6167,26.93,79,99,2.15,RE,1699622211
96,broken hill,-31.95,141.4333,30.75,20,16,4.32,AU,1699621937
97,lebu,-37.6167,-73.65,11.21,71,100,1.66,CL,1699622212
98,lodja,-3.4833,23.4333,24.91,72,100,0.98,CD,1699622214
99,chibougamau,49.9168,-74.3659,-7.21,93,100,2.06,CA,1699622214
100,san patricio,28.017,-97.5169,16.91,88,100,5.76,US,1699622215
101,yanam,16.7333,82.2167,24.28,71,87,2.04,IN,1699622216
102,keflavik,64.0049,-22.5624,2.24,93,75,5.66,IS,1699622217
103,salalah,17.0151,54.0924,30.05,70,40,4.12,OM,1699622218
104,port lincoln,-34.7333,135.8667,14.95,87,54,8.55,AU,1699622218
105,lycksele,64.5954,18.6735,-2.07,93,100,4.12,SE,1699622219
106,ternate,0.8,127.4,27.61,78,100,1.04,ID,1699622220
107,papatowai,-46.5619,169.4708,6.16,73,0,2.14,NZ,1699622221
108,visakhapatnam,17.69,83.2093,26.94,61,55,2.57,IN,1699622222
109,pitalito,1.8497,-76.0479,20.01,91,98,0.81,CO,1699622224
110,edinburgh of the seven seas,-37.0676,-12.3116,13.63,80,100,7.92,SH,1699621965
111,whitby,54.4877,-0.615,8.54,85,98,4.02,GB,1699622115
112,bulungu,-4.55,18.6,26.25,82,100,1.4,CD,1699622226
113,tobruk,32.0836,23.9764,24.37,52,31,1.92,LY,1699622227
114,calabozo,8.9242,-67.4293,28.23,69,99,4.24,VE,1699622142
115,massawa,15.6097,39.45,29.83,58,100,3.85,ER,1699622229
116,enewetak,11.3474,162.3373,28.43,76,85,7.69,MH,1699622230
117,hadibu,12.65,54.0333,27.67,77,51,4.92,YE,1699622231
118,aasiaat,68.7098,-52.8699,-8.02,76,100,6.15,GL,1699622233
119,san sebastian de la gomera,28.0916,-17.1133,27.99,69,0,3.09,ES,1699622234
120,praia da vitoria,38.7333,-27.0667,23.14,78,40,12.53,PT,1699622235
121,haiku-pauwela,20.9219,-156.3051,23.91,74,0,4.47,US,1699622237
122,abu dhabi,24.4667,54.3667,32.06,47,0,3.6,AE,1699621985
123,watsa,3.0372,29.5355,27.06,59,83,1.27,CD,1699622240
124,thompson,55.7435,-97.8558,-9.91,92,75,0.0,CA,1699622242
125,ta`u,-14.2336,-169.5144,27.02,82,18,3.77,AS,1699622243
126,hithadhoo,-0.6,73.0833,27.59,81,86,5.08,MV,1699622244
127,taoudenni,22.6783,-3.9836,31.42,11,0,4.19,ML,1699622246
128,ust'-kulom,61.6864,53.6902,-0.17,88,100,2.38,RU,1699622247
129,fuglafjordur,62.244,-6.814,8.26,82,37,5.97,FO,1699622248
130,punta arenas,-53.15,-70.9167,13.06,47,0,5.66,CL,1699622188
131,iwaki,37.05,140.8833,16.54,94,100,6.66,JP,1699622250
132,akjoujt,19.6969,-14.4164,33.52,12,0,5.39,MR,1699622251
133,sitka,57.0531,-135.33,6.94,70,100,6.69,US,1699622252
134,hamilton,39.1834,-84.5333,9.87,67,0,2.06,US,1699622254
135,rio grande,-32.035,-52.0986,20.06,69,100,7.14,BR,1699622255
136,tazovsky,67.4667,78.7,-1.69,87,100,7.85,RU,1699622256
137,fort mcmurray,56.7268,-111.381,-6.23,86,0,4.12,CA,1699622045
138,tocopilla,-22.092,-70.1979,21.95,62,100,2.74,CL,1699622259
139,taltal,-25.4,-70.4833,20.22,63,90,1.73,CL,1699622260
140,lloydminster,53.2835,-110.0016,-8.88,92,0,6.17,CA,1699622227
141,janikowo,52.7533,18.1133,10.85,77,100,4.22,PL,1699622262
142,invercargill,-46.4,168.35,6.12,89,0,0.45,NZ,1699622001
143,lengshuitan,26.4111,111.5956,14.37,89,100,3.31,CN,1699622263
144,pingzhuang,42.0372,119.2889,-7.39,77,7,1.32,CN,1699622264
145,achinsk,56.2694,90.4993,-7.67,77,4,3.58,RU,1699622265
146,naze,28.3667,129.4833,21.51,75,87,7.22,JP,1699622266
147,key west,24.5557,-81.7826,28.0,80,20,3.6,US,1699622262
148,minas de marcona,-15.2119,-75.1103,16.07,80,60,3.97,PE,1699622268
149,makungu,-8.7333,35.2833,29.71,30,73,5.62,TZ,1699622268
150,baiyin,36.5583,104.2081,3.28,39,78,3.29,CN,1699622269
151,hunstanton,52.95,0.5,10.06,78,66,1.34,GB,1699622270
152,elesbao veloso,-6.2019,-42.1403,34.99,30,0,3.46,BR,1699622271
153,jayapura,-2.5333,140.7,27.66,90,20,3.41,ID,1699622272
154,kununurra,-15.7667,128.7333,27.99,78,40,5.14,AU,1699622272
155,kodiak,57.79,-152.4072,0.73,60,100,2.57,US,1699622273
156,ancud,-41.8697,-73.8203,10.94,74,29,4.45,CL,1699622274
157,wailua homesteads,22.0669,-159.378,24.44,82,0,6.69,US,1699622275
158,'ain el hadjar,34.7585,0.1453,18.63,38,98,8.92,DZ,1699622276
159,novyy turtkul',41.55,61.0167,15.95,31,100,4.87,UZ,1699622277
160,egilsstadir,65.2653,-14.3948,0.95,93,40,0.51,IS,1699622277
161,lihue,21.9789,-159.3672,24.77,77,0,6.69,US,1699622278
162,nyirbator,47.8333,22.1333,11.1,50,100,3.36,HU,1699622279
163,margate,51.3813,1.3862,9.39,86,80,2.24,GB,1699622165
164,eyl,7.9803,49.8164,27.34,74,100,5.29,SO,1699622280
165,lucapa,-8.4192,20.7447,25.21,68,94,1.47,AO,1699622281
166,nova sintra,14.8667,-24.7167,22.4,66,67,3.91,CV,1699622282
167,sola,-13.8833,167.55,26.03,83,100,11.06,VU,1699622283
168,qingshuping,27.3817,112.0221,12.04,92,100,3.81,CN,1699622284
169,kingston,17.997,-76.7936,30.53,78,20,3.6,JM,1699622172
170,utrik,11.2278,169.8474,27.54,83,100,8.18,MH,1699622287
171,rabaul,-4.1967,152.1721,26.8,83,99,2.7,PG,1699622288
172,vilyuchinsk,52.9306,158.4028,-2.82,97,100,2.41,RU,1699622289
173,red hill,33.9996,-79.2581,18.84,47,70,2.83,US,1699622289
174,skelleftea,64.7507,20.9528,0.2,100,75,3.09,SE,1699622290
175,tofol,5.3248,163.0078,28.64,81,100,6.91,FM,1699622291
176,ponta delgada,37.7333,-25.6667,21.4,88,40,7.72,PT,1699622292
177,colonia,50.9333,6.95,11.09,69,75,6.69,DE,1699622293
178,aykhal,66.0,111.5,-13.98,93,42,2.74,RU,1699622295
179,bredasdorp,-34.5322,20.0403,26.88,43,99,6.14,ZA,1699622296
180,terrace,54.5163,-128.6035,4.95,93,100,5.66,CA,1699622297
181,al hufuf,25.3646,49.5653,31.19,33,0,1.54,SA,1699622226
182,tiksi,71.6872,128.8694,-16.73,89,100,4.43,RU,1699622299
183,mount gambier,-37.8333,140.7667,14.81,77,11,2.95,AU,1699622300
184,susuman,62.7833,148.1667,-30.06,98,87,0.32,RU,1699622300
185,barstow heights,34.8697,-117.0562,2.73,27,0,0.57,US,1699622301
186,mount isa,-20.7333,139.5,24.87,94,100,1.54,AU,1699622302
187,kondopoga,62.2057,34.2614,4.83,93,100,2.62,RU,1699622303
188,dryden,49.7833,-92.7503,-3.84,100,100,1.54,CA,1699622304
189,flying fish cove,-10.4217,105.6791,25.82,83,40,3.6,CX,1699622305
190,aromashevo,56.8602,68.6375,0.67,99,100,1.17,RU,1699622306
191,magog,45.2668,-72.1491,4.9,70,65,9.26,CA,1699622059
192,lata,40.1629,-8.3327,17.26,65,98,3.21,PT,1699622308
193,dunedin,-45.8742,170.5036,6.44,89,0,1.94,NZ,1699622082
194,gaalkacyo,6.7697,47.4308,23.61,89,100,4.81,SO,1699622310
195,port isabel,26.0734,-97.2086,23.9,90,75,0.73,US,1699622311
196,west bay,19.3667,-81.4167,30.04,88,20,4.12,KY,1699622313
197,tamandare,-8.7597,-35.1047,29.0,55,9,5.99,BR,1699622313
198,vadso,70.0744,29.7487,-1.91,93,75,6.69,NO,1699622314
199,al qaryatayn,34.2296,37.2407,23.09,34,6,2.04,SY,1699622316
200,venice,27.0998,-82.4543,23.92,93,8,1.34,US,1699622048
201,xilin hot,43.9667,116.0333,-16.78,93,11,1.28,CN,1699622317
202,ola,59.5833,151.2833,-16.53,82,5,6.17,RU,1699622318
203,santa cruz,-17.8,-63.1667,31.7,58,1,6.69,BO,1699622319
204,singaparna,-7.3515,108.111,23.41,88,81,0.58,ID,1699622320
205,pisco,-13.7,-76.2167,19.03,82,100,4.63,PE,1699622088
206,goz beida,13.95,20.55,39.46,13,100,3.69,TD,1699622322
207,talnakh,69.4865,88.3972,-7.66,83,100,9.71,RU,1699622323
208,dhidhdhoo,6.8833,73.1,28.81,74,99,4.96,MV,1699622324
209,ribeira grande,38.5167,-28.7,21.22,94,75,11.18,PT,1699622325
210,kirakira,-10.4544,161.9205,26.11,90,100,4.91,SB,1699622326
211,saint-philippe,-21.3585,55.7679,26.77,81,99,3.34,RE,1699622327
212,olonkinbyen,70.9221,-8.7187,-1.76,64,64,2.32,SJ,1699622328
213,st. john's,47.5649,-52.7093,3.87,93,75,14.4,CA,1699622328
214,gloucester,51.8657,-2.2431,10.2,81,40,5.14,GB,1699622329
215,mpongwe,-13.5091,28.155,31.59,30,65,3.36,ZM,1699622330
216,ciudad lopez mateos,19.5583,-99.2614,14.52,68,94,0.61,MX,1699622331
217,truro,50.2653,-5.0544,12.69,76,75,10.29,GB,1699622332
218,dawei,14.0833,98.2,26.15,88,85,0.63,MM,1699622333
219,saryozek,44.3583,77.9753,5.29,83,100,2.19,KZ,1699622334
220,lethbridge,49.7,-112.8186,2.58,69,20,4.63,CA,1699622335
221,manavalakurichi,8.1333,77.3,27.52,81,94,1.91,IN,1699622336
222,dalandzadgad,43.5708,104.425,-8.2,29,5,3.02,MN,1699622337
223,fort bragg,35.139,-79.006,18.23,85,75,0.45,US,1699622338
224,bamboo flat,11.7,92.7167,27.05,89,40,1.03,IN,1699622339
225,coruripe,-10.1256,-36.1756,29.47,55,1,6.86,BR,1699622340
226,namibe,-15.1961,12.1522,23.65,65,69,5.34,AO,1699622341
227,broome,42.2506,-75.833,6.68,69,0,3.09,US,1699622343
228,hotan,37.0997,79.9269,9.05,38,100,2.87,CN,1699622344
229,port alfred,-33.5906,26.891,23.43,80,1,4.02,ZA,1699622345
230,saipan,15.1355,145.701,28.39,78,20,6.17,MP,1699622346
231,la passe,45.5549,-0.8967,15.13,68,54,11.21,FR,1699622347
232,big bend,-26.8167,31.9333,28.47,48,50,3.33,SZ,1699622349
233,georgetown,5.4112,100.3354,28.97,84,40,1.54,MY,1699622350
234,trongsa,27.5026,90.5072,9.77,96,99,1.0,BT,1699622351
235,zemio,5.0314,25.1361,27.92,72,100,1.01,CF,1699622352
236,beni saf,35.301,-1.3823,25.16,71,89,8.24,DZ,1699622353
237,mutare,-18.9707,32.6709,26.71,34,0,4.8,ZW,1699622354
238,olonets,60.9847,32.9698,5.57,90,100,3.99,RU,1699622355
239,quibala,-10.7337,14.98,25.04,72,100,2.0,AO,1699622356
240,polyarnyy,69.1989,33.4478,-3.67,91,100,8.2,RU,1699622357
241,nizhneudinsk,54.9076,99.0276,-14.24,94,29,1.61,RU,1699622358
242,blenheim,-41.516,173.9528,5.7,88,0,2.47,NZ,1699622359
243,takoradi,4.8845,-1.7554,28.23,78,100,5.18,GH,1699622355
244,mkushi,-13.6202,29.3939,29.47,34,90,4.75,ZM,1699622361
245,nalut,30.3333,10.85,28.36,15,0,2.46,LY,1699622362
246,chalus,36.655,51.4204,16.7,100,100,2.06,IR,1699622363
247,tarija,-21.5355,-64.7296,23.95,60,9,0.0,BO,1699622364
248,paita,-5.0892,-81.1144,20.26,77,56,5.4,PE,1699622365
249,alaghsas,17.0187,8.0168,34.94,9,0,3.6,NE,1699622365
250,pakokku,21.3333,95.1,26.61,65,2,2.67,MM,1699622366
251,inongo,-1.95,18.2667,24.98,81,51,1.12,CD,1699622367
252,vianopolis,-16.7419,-48.5164,31.23,13,33,4.33,BR,1699622368
253,juankoski,63.0667,28.35,-0.02,98,100,2.82,FI,1699622369
254,udachny,66.4167,112.4,-15.29,94,82,2.15,RU,1699622370
255,petropavlovsk-kamchatsky,53.0452,158.6483,-3.64,73,100,9.39,RU,1699622372
256,chui,-33.6971,-53.4616,18.85,58,95,5.3,UY,1699622373
257,kamenka,51.3223,42.7678,7.19,69,5,5.77,RU,1699622374
258,saldanha,-33.0117,17.9442,18.23,76,43,9.33,ZA,1699622375
259,avarua,-21.2078,-159.775,24.03,94,75,1.54,CK,1699622376
260,boa vista,2.8197,-60.6733,30.99,58,20,4.63,BR,1699622187
261,lorengau,-2.0226,147.2712,27.07,86,100,4.72,PG,1699622378
262,island harbour,50.724,-1.2758,11.2,81,24,3.58,GB,1699622379
263,kalianget,-7.05,113.9333,28.78,74,100,2.73,ID,1699622381
264,bukama,-9.2,25.85,28.29,62,90,2.42,CD,1699622382
265,plouzane,48.3833,-4.6167,13.18,71,75,9.77,FR,1699622383
266,rio brilhante,-21.8019,-54.5464,35.13,36,93,4.78,BR,1699622383
267,khandyga,62.6667,135.6,-33.07,100,91,0.68,RU,1699622384
268,malvan,16.0667,73.4667,28.88,74,89,2.73,IN,1699622385
269,puerto vallarta,20.6204,-105.2307,26.06,88,75,0.0,MX,1699622386
270,papao,-17.75,-149.55,24.82,79,100,1.68,PF,1699622387
271,rasht,37.2808,49.5832,16.9,100,100,0.0,IR,1699622144
272,lompoc,34.6391,-120.4579,8.66,90,0,3.6,US,1699622388
273,niquero,20.0431,-77.5828,26.91,80,0,3.16,CU,1699622389
274,laon,49.5667,3.6667,10.25,75,100,7.82,FR,1699622390
275,rabo de peixe,37.8,-25.5833,20.73,99,40,7.72,PT,1699622391
276,agat village,13.3886,144.6585,29.06,81,20,3.09,GU,1699622392
277,codrington,-38.2667,141.9667,16.0,72,1,3.17,AU,1699622393
278,tchintabaraden,15.8969,5.7985,35.31,7,10,2.81,NE,1699622394
279,chengde,40.9725,117.9361,-3.37,40,75,1.27,CN,1699622395
280,whitehorse,60.7161,-135.0538,0.43,80,75,7.72,CA,1699622396
281,bikenibeu village,1.3673,173.1241,28.98,84,75,1.03,KI,1699622396
282,qamdo,31.1667,97.2333,-0.33,46,32,0.62,CN,1699622397
283,sisimiut,66.9395,-53.6735,-6.02,77,100,6.5,GL,1699622398
284,yara,20.2753,-76.9533,26.11,83,0,2.46,CU,1699622399
285,carnarvon,-24.8667,113.6333,20.4,74,100,10.84,AU,1699622400
286,kralendijk,12.15,-68.2667,30.99,70,40,7.72,BQ,1699622401
287,puerto baquerizo moreno,-0.9,-89.6,24.57,81,94,6.21,EC,1699622402
288,akureyri,65.6835,-18.0878,-3.04,74,0,2.06,IS,1699622403
289,santa isabel,-23.3156,-46.2214,25.84,56,14,2.22,BR,1699622198
290,benguela,-12.5763,13.4055,28.48,59,19,5.36,AO,1699622406
291,ghadamis,30.1337,9.5007,29.93,13,0,0.31,LY,1699622407
292,alofi,-19.0595,-169.9187,25.94,94,75,4.08,NU,1699622304
293,villa gesell,-37.2639,-56.973,19.47,48,100,8.26,AR,1699622409
294,usogorsk,63.4106,48.6872,0.37,96,100,0.15,RU,1699622410
295,tsiombe,-25.3,45.4833,23.6,51,87,5.22,MG,1699622411
296,magadan,59.5667,150.8,-16.06,79,5,5.93,RU,1699622412
297,borogontsy,62.6683,131.1683,-32.45,100,15,1.28,RU,1699622413
298,sittwe,20.15,92.9,25.49,72,1,4.17,MM,1699622414
299,kita,13.0349,-9.4895,36.03,14,100,1.66,ML,1699622415
300,winnemucca,40.973,-117.7357,-1.97,59,100,2.06,US,1699622415
301,crane,31.3974,-102.3501,8.58,62,100,4.42,US,1699622417
302,toliara,-23.35,43.6667,25.52,64,15,8.08,MG,1699622418
303,mata-utu,-13.2816,-176.1745,27.5,82,100,4.91,WF,1699622420
304,puerto leguizamo,-0.1934,-74.7819,22.94,99,100,0.61,CO,1699622421
305,moanda,-1.5575,13.2178,23.86,96,100,1.54,GA,1699622422
306,guerrero negro,27.9769,-114.0611,15.07,47,0,1.13,MX,1699622423
307,kapuskasing,49.4169,-82.4331,-3.95,93,100,2.57,CA,1699622424
308,tadine,-21.55,167.8833,21.1,68,4,7.16,NC,1699622425
309,tangalle,6.024,80.7911,26.62,82,67,3.31,LK,1699622426
310,ghat,24.9647,10.1728,31.17,9,0,1.72,LY,1699622427
311,college,64.8569,-147.8028,-6.01,88,100,1.54,US,1699622428
312,n'zeto,-7.2312,12.8666,27.64,76,100,5.01,AO,1699622429
313,richards bay,-28.783,32.0377,25.86,62,25,6.62,ZA,1699622430
314,chawang,8.4261,99.5047,25.89,89,100,0.54,TH,1699622431
315,shengli,37.4564,118.4856,5.44,46,100,2.55,CN,1699622432
316,fuerte olimpo,-21.0415,-57.8738,37.83,32,30,5.69,PY,1699622433
317,man,7.4125,-7.5538,27.36,81,64,0.43,CI,1699622434
318,dubbo,-32.25,148.6167,20.07,68,2,4.12,AU,1699622435
319,isangel,-19.55,169.2667,22.38,74,96,7.0,VU,1699622437
320,pecos,31.4229,-103.4932,9.46,93,100,0.0,US,1699622101
321,argo,37.6333,22.7333,15.44,78,100,2.74,GR,1699622440
322,larreynaga,12.6769,-86.5719,24.59,85,81,0.89,NI,1699622441
323,alice springs,-23.7,133.8833,26.75,41,1,6.69,AU,1699622203
324,kavaratti,10.5669,72.642,28.83,72,100,3.91,IN,1699622443
325,qaqortoq,60.7167,-46.0333,-6.45,59,100,3.96,GL,1699622444
326,banjarmasin,-3.3244,114.591,29.08,81,35,2.19,ID,1699622404
327,fortaleza,-3.7227,-38.5247,31.07,59,75,9.77,BR,1699622290
328,mikun',62.3547,50.0771,-0.89,88,100,1.53,RU,1699622446
329,mabaruma,8.2,-59.7833,30.24,64,99,2.39,GY,1699622447
330,linxia chengguanzhen,35.6003,103.2064,5.81,55,67,1.27,CN,1699622448
331,afaahiti,-17.75,-149.2833,23.93,84,100,4.08,PF,1699622449
332,murray bridge,-35.1167,139.2667,20.62,58,97,8.42,AU,1699622450
333,valparaiso,-33.0393,-71.6273,13.13,100,100,5.14,CL,1699622199
334,kiffa,16.6166,-11.4045,34.12,12,0,3.89,MR,1699622451
335,butare,-2.5967,29.7394,22.93,64,100,0.58,RW,1699622452
336,kalkaman,51.9525,76.0211,3.52,96,100,5.85,KZ,1699622453
337,nikolayevsk-on-amure,53.1406,140.73,-6.81,95,100,2.3,RU,1699622454
338,ishigaki,24.3448,124.1572,24.07,94,75,8.23,JP,1699622455
339,paradip garh,20.3167,86.6167,25.11,60,4,3.66,IN,1699622455
340,neryungri,56.6709,124.6491,-17.53,98,100,1.37,RU,1699622456
341,vorgashor,67.5833,63.95,-5.66,93,100,4.47,RU,1699622457
342,farasan,16.7022,42.1183,29.63,63,100,2.47,SA,1699622458
343,torghay,49.6339,63.4981,8.87,71,100,4.92,KZ,1699622459
344,gemena,3.25,19.7667,25.15,83,100,1.12,CD,1699622460
345,soe,-9.8607,124.284,20.4,87,38,1.51,ID,1699622461
346,mumford,5.2618,-0.759,28.38,78,58,6.0,GH,1699622462
347,saint-pierre,-21.3393,55.4781,27.54,69,75,3.6,RE,1699622463
348,aswan,24.0934,32.907,35.53,27,15,4.1,EG,1699622465
349,caleta de carquin,-11.0925,-77.6267,19.39,83,100,3.73,PE,1699622466
350,oroqen zizhiqi,50.5667,123.7167,-14.28,86,12,1.61,CN,1699622467
351,mhamid,29.82,-5.72,27.87,12,5,1.2,MA,1699622468
352,pitea,65.3172,21.4794,-0.95,95,88,2.86,SE,1699622469
353,kangding,30.0513,101.9603,8.58,97,100,1.46,CN,1699622470
354,monrovia,6.3005,-10.7969,30.87,79,84,2.85,LR,1699622471
355,cabo san lucas,22.8909,-109.9124,24.31,90,0,3.6,MX,1699622463
356,luanda,-8.8368,13.2343,27.0,78,75,4.63,AO,1699622000
357,pohang,36.0322,129.365,5.76,41,0,3.55,KR,1699622474
358,ust'-kut,56.7938,105.7672,-13.65,93,95,0.45,RU,1699622474
359,alo,7.4178,6.7371,34.85,46,96,0.7,NG,1699622475
360,al ghayzah,16.2079,52.176,28.8,58,11,4.63,YE,1699622476
361,chokwe,-24.5333,32.9833,29.47,45,67,1.95,MZ,1699622477
362,cockburn town,21.4612,-71.1419,27.98,74,75,5.14,TC,1699622428
363,magong,23.5654,119.5863,24.9,86,41,12.78,TW,1699622479
364,rocha,-34.4833,-54.3333,19.12,51,96,5.68,UY,1699622480
365,waddan,29.1614,16.139,28.44,20,78,0.7,LY,1699622481
366,grand-bassam,5.2118,-3.7388,30.98,71,100,4.3,CI,1699622482
367,san antonio de pale,-1.4014,5.6325,26.13,82,100,5.22,GQ,1699622483
368,berezovyy,51.6667,135.7,-6.37,74,100,2.29,RU,1699622484
369,petauke,-14.2426,31.3253,33.05,26,32,3.55,ZM,1699622485
370,tulun,54.5611,100.5792,-14.69,97,13,1.43,RU,1699622487
371,yenotayevka,47.2456,47.0281,10.73,52,8,8.55,RU,1699622488
372,chifeng,42.2683,118.9636,-8.03,78,0,0.8,CN,1699622489
373,bam,29.106,58.357,23.33,23,0,3.19,IR,1699622490
374,pangyan,5.7008,125.2811,26.82,82,100,2.02,PH,1699622491
375,arteche,12.2645,125.4048,26.3,87,13,1.16,PH,1699622492
376,coyhaique,-45.5752,-72.0662,12.34,58,40,1.54,CL,1699622238
377,manta,-0.95,-80.7333,25.88,73,75,5.14,EC,1699622496
378,tripoli,32.8752,13.1875,25.41,55,6,4.32,LY,1699622496
379,la sarre,48.8002,-79.1996,-5.54,95,95,3.64,CA,1699622498
380,punganuru,13.3667,78.5833,22.03,80,87,2.7,IN,1699622499
381,el carril,-25.0741,-65.4917,23.8,65,100,2.36,AR,1699622499
382,hobyo,5.3505,48.5268,24.88,92,100,4.16,SO,1699622501
383,leskova dolina,45.6225,14.4613,8.98,100,100,2.09,SI,1699622501
384,tenenkou,14.4572,-4.9169,36.84,13,91,2.88,ML,1699622502
385,omaruru,-21.4333,15.9333,36.15,13,100,4.48,NA,1699622503
386,lethem,3.3803,-59.7968,31.76,50,41,5.78,GY,1699622504
387,callao,-12.0667,-77.15,20.4,77,100,6.17,PE,1699622505
388,shillong,25.5689,91.8831,12.67,95,5,0.29,IN,1699622506
389,el calafate,-50.3408,-72.2768,9.21,58,12,0.98,AR,1699622507
390,gorontalo,0.5412,123.0595,25.16,94,47,1.33,ID,1699622507
391,bonthe,7.5264,-12.505,24.81,90,100,2.09,SL,1699622508
392,las tablas,7.7667,-80.2833,26.37,88,100,1.91,PA,1699622509
393,kayes,14.0,-11.0,36.12,13,5,0.87,ML,1699622510
394,barra de santo antonio,-9.4047,-35.5072,31.6,62,12,6.38,BR,1699622511
395,tokar,18.4254,37.729,32.99,43,1,8.84,SD,1699622512
396,mount pearl,47.5166,-52.7813,3.41,92,75,14.4,CA,1699622512
397,tolanaro,-25.0319,46.9987,24.04,60,75,7.2,MG,1699622513
398,weno,7.4515,151.8468,26.97,94,100,2.57,FM,1699622515
399,bhadasar,28.2833,74.3167,26.74,34,72,6.2,IN,1699622516
400,taroa,8.7058,171.2275,28.01,82,90,8.86,MH,1699622516
401,lospalos,-8.5186,127.0025,21.93,86,95,1.07,TL,1699622517
402,miri,4.4148,114.0089,26.08,94,40,2.06,MY,1699622518
403,muromtsevo,56.3724,75.2418,2.21,97,100,2.29,RU,1699622519
404,wankyi,7.7392,-2.1046,32.48,51,92,1.44,GH,1699622520
405,hailey,43.5196,-114.3153,-1.08,68,75,3.09,US,1699622521
406,luderitz,-26.6481,15.1594,22.07,63,3,5.55,NA,1699622518
407,undurkhaan,47.3194,110.6556,-21.13,92,13,1.77,MN,1699622522
408,wellington,-41.2866,174.7756,10.81,79,75,4.63,NZ,1699622036
409,douvres-la-delivrande,49.2947,-0.3804,12.3,82,75,10.8,FR,1699622525
410,recani,31.2846,-4.2688,24.64,18,6,1.04,MA,1699622526
411,kitimat,54.0524,-128.6534,5.21,63,100,2.24,CA,1699622528
412,turuntayevo,52.2,107.6167,-9.95,96,51,0.61,RU,1699622529
413,cedeira,43.6797,-8.0209,13.54,49,100,5.89,ES,1699622530
414,santa cruz del sur,20.7147,-77.9956,26.72,83,36,6.13,CU,1699622531
415,uturoa,-16.7333,-151.4333,26.29,83,99,4.63,PF,1699622532
416,adrar,20.5022,-10.0711,30.48,12,0,7.86,MR,1699622534
417,jiuquan,39.7432,98.5174,-0.99,28,0,2.56,CN,1699622535
418,portland,45.5234,-122.6762,9.34,95,100,2.06,US,1699622170
419,zeya,53.75,127.2667,-11.95,68,34,2.94,RU,1699622536
420,coahuayana de hidalgo,18.7,-103.6583,24.25,85,84,1.66,MX,1699622537
421,mandalgovi,45.7625,106.2708,-13.02,47,0,3.74,MN,1699622538
422,buta,2.7858,24.73,27.41,82,84,1.02,CD,1699622539
423,pacific grove,36.6177,-121.9166,12.58,70,0,2.57,US,1699622540
424,great falls,47.5002,-111.3008,5.23,47,100,5.14,US,1699622541
425,trstenik,43.6169,21.0025,13.23,61,100,4.62,RS,1699622542
426,giddings,30.1827,-96.9364,13.63,94,100,5.14,US,1699622543
427,campina verde,-19.5356,-49.4864,34.71,22,5,3.27,BR,1699622544
428,lindley,-27.8791,27.9135,30.79,14,0,3.57,ZA,1699622545
429,shijiazhuang,38.0414,114.4786,0.92,59,100,4.76,CN,1699622546
430,kingsville,27.5159,-97.8561,16.1,97,100,5.36,US,1699622546
431,sovetskiy,61.3614,63.5842,-0.06,90,100,2.24,RU,1699622547
432,erdenet,49.0333,104.0833,-15.22,90,5,1.57,MN,1699622548
433,ar rutbah,33.0381,40.2848,27.85,18,91,2.8,IQ,1699622549
434,porto novo,6.4965,2.6036,31.9,69,96,4.06,BJ,1699622550
435,vorkuta,67.5,64.0,-4.72,91,100,4.75,RU,1699622468
436,nemuro,43.3236,145.575,10.02,96,100,5.3,JP,1699622552
437,kovdor,67.5662,30.4758,-5.45,95,92,2.31,RU,1699622553
438,shitanjing,39.2342,106.3439,-2.41,29,0,1.46,CN,1699622553
439,prince rupert,54.3161,-130.3201,8.83,78,100,16.46,CA,1699622263
440,bich'vinta,43.1592,40.3378,15.1,66,10,2.05,GE,1699622555
441,lautoka,-17.6167,177.4667,25.92,69,75,5.14,FJ,1699622556
442,nahrin,36.0649,69.1334,13.44,36,100,0.45,AF,1699622557
443,tanjung pandan,-2.75,107.65,26.37,83,100,1.27,ID,1699622558
444,loango,-4.6719,11.8312,29.81,79,40,4.63,CG,1699622559
445,queenstown,-31.8976,26.8753,33.44,7,0,6.28,ZA,1699622560
446,geraldton,-28.7667,114.6,19.23,68,96,12.86,AU,1699622387
447,sijunjung,-0.6876,100.9537,23.18,96,100,0.59,ID,1699622562
448,orsa,54.5153,30.4053,6.75,72,100,6.91,BY,1699622562
449,katpur,21.05,71.7833,29.23,52,0,2.17,IN,1699622563
450,sao pedro do sul,-29.6206,-54.1789,21.95,82,100,3.28,BR,1699622336
451,homer,59.6425,-151.5483,-0.06,77,100,3.09,US,1699622565
452,lae,-6.7221,146.9847,25.24,88,100,0.54,PG,1699622566
453,constitucion,-35.3333,-72.4167,12.38,72,99,3.3,CL,1699622566
454,las khorey,11.1595,48.1967,28.4,66,32,5.34,SO,1699622568
455,reggane,26.7158,0.1714,33.44,14,7,4.61,DZ,1699622569
456,kalevala,65.2,31.1667,-3.84,93,100,0.89,RU,1699622570
457,tougan,13.0667,-3.0667,37.4,13,80,4.03,BF,1699622571
458,jinghong,21.991,100.7341,22.94,76,25,1.18,CN,1699622572
459,bitkine,11.9801,18.2138,36.92,15,94,3.27,TD,1699622573
460,sao paulo de olivenca,-3.3783,-68.8725,28.01,78,100,0.39,BR,1699622574
461,bakanas,44.8081,76.2772,8.78,58,14,1.34,KZ,1699622575
462,juru,5.312,100.4423,28.99,84,40,1.54,MY,1699622576
463,choma,-16.8065,26.9531,32.09,23,64,6.14,ZM,1699622576
464,puerto armuelles,8.2833,-82.8667,28.98,84,96,3.13,PA,1699622577
465,muswellbrook,-32.2667,150.9,17.4,83,0,1.22,AU,1699622578
466,ust-nera,64.5667,143.2,-31.01,96,56,0.44,RU,1699622579
467,ulanhot,46.0833,122.0833,-6.85,45,0,4.84,CN,1699622580
468,ngama,11.7833,17.1667,38.04,15,100,3.78,TD,1699622580
469,uttar char fasson,22.2332,90.7132,25.47,58,7,2.59,BD,1699622581
470,essaouira,31.5125,-9.77,28.72,16,100,8.23,MA,1699622582
471,greymouth,-42.4667,171.2,8.79,90,7,1.5,NZ,1699622583
472,novokayakent,42.3937,47.9861,14.32,54,100,4.18,RU,1699622584
473,pervomayskoye,43.919,46.7102,14.18,37,11,6.04,RU,1699622585
474,floro,61.5996,5.0328,6.04,70,0,1.54,NO,1699622586
475,shunyi,40.125,116.6453,-0.03,40,0,2.0,CN,1699622315
476,sandnessjoen,66.0217,12.6316,4.12,52,0,4.63,NO,1699622588
477,awjilah,29.1081,21.2869,27.61,34,100,1.37,LY,1699622589
478,puyang,29.4603,119.8861,12.19,91,100,2.12,CN,1699622590
479,zhongxing,33.7039,118.6792,9.04,51,100,4.46,CN,1699622591
480,deschutes river woods,43.9915,-121.3584,2.6,79,100,1.54,US,1699622592
481,ambovombe,-25.1667,46.0833,21.83,62,100,6.21,MG,1699622593
482,morondava,-20.2833,44.2833,27.34,63,0,9.54,MG,1699622594
483,kirillov,59.863,38.3813,4.43,94,99,2.59,RU,1699622595
484,vernon,50.2581,-119.2691,4.2,87,63,2.06,CA,1699622595
485,arinos,-15.9169,-46.1056,33.51,24,7,2.18,BR,1699622452
486,likiep,9.8251,169.3107,27.94,81,99,9.03,MH,1699622483
487,taro,-8.3862,115.28,24.0,94,100,0.47,ID,1699622598
488,sinabang,2.4803,96.3801,26.37,86,100,2.78,ID,1699622599
489,saint-denis,48.9167,2.3333,12.09,74,100,8.75,FR,1699622600
490,shush,32.1942,48.2436,30.46,22,6,2.22,IR,1699622601
491,pionerskiy,54.9508,20.2275,9.91,72,63,7.0,RU,1699622602
492,kapa'a,22.0752,-159.319,25.18,78,0,6.69,US,1699622603
493,bahia honda,22.9036,-83.1592,24.51,85,9,3.78,CU,1699622604
494,nyurba,63.2842,118.3319,-18.07,100,99,1.17,RU,1699622605
495,freyung,48.8,13.55,7.75,80,100,0.45,DE,1699622606
496,bengkulu,-3.8004,102.2655,24.81,93,100,1.76,ID,1699622607
497,katsuren-haebaru,26.3369,127.8719,25.22,73,75,2.57,JP,1699622608
498,camiri,-20.05,-63.5167,28.88,54,40,0.0,BO,1699622609
499,thinadhoo,0.5333,72.9333,27.67,80,100,4.3,MV,1699622489
500,saldus,56.6636,22.4881,7.87,84,100,4.29,LV,1699622611
501,natal,-5.795,-35.2094,29.12,65,75,8.23,BR,1699622612
502,vuktyl,63.8567,57.3094,-0.5,93,100,2.68,RU,1699622613
503,bayan,46.0833,127.4,-17.52,97,26,2.32,CN,1699622614
504,gadzhiyevo,69.2551,33.3362,-4.14,90,100,8.62,RU,1699622615
505,lander,42.833,-108.7307,6.33,40,0,2.06,US,1699622616
506,chandler,33.3062,-111.8412,15.33,30,0,2.06,US,1699622601
507,porto velho,-8.7619,-63.9039,33.03,58,0,1.54,BR,1699622480
508,gilgit,35.9221,74.3087,12.18,75,100,0.74,PK,1699622618
509,lijiang,26.8688,100.2207,7.73,64,0,1.34,CN,1699622619
510,mossel bay,-34.1831,22.146,30.96,64,100,4.02,ZA,1699622620
511,bokhan,53.153,103.7714,-16.19,96,11,0.96,RU,1699622621
512,murzuq,25.9155,13.9184,29.01,18,0,0.9,LY,1699622622
513,uryupinsk,50.8047,42.0138,7.56,68,5,5.02,RU,1699622623
514,birzebbuga,35.8258,14.5269,23.42,60,40,4.63,MT,1699622624
515,sirte,31.2089,16.5887,25.75,40,2,2.01,LY,1699622625
516,purranque,-40.9167,-73.1667,9.04,57,27,1.7,CL,1699622625
517,siwa oasis,29.2041,25.5195,26.68,34,100,2.16,EG,1699622626
518,nova olimpia,-14.7972,-57.2881,36.32,30,4,3.28,BR,1699622627
519,sona,45.4388,10.8255,12.75,81,75,2.06,IT,1699622628
520,at taj,24.2049,23.2857,29.0,22,100,3.51,LY,1699622629
521,xining,36.6167,101.7667,3.17,55,14,1.57,CN,1699622630
522,iwon-up,40.3231,128.6553,0.91,45,3,4.59,KP,1699622631
523,dolores,-36.3132,-57.6792,20.69,34,100,6.91,AR,1699622632
524,andovoranto,-18.95,49.1,25.93,89,64,4.61,MG,1699622633
525,manay,7.215,126.5397,26.2,86,2,2.65,PH,1699622634
526,trujillo,-8.116,-79.03,18.98,88,75,5.66,PE,1699622634
527,corner brook,48.9667,-57.9484,2.09,80,100,0.4,CA,1699622635
528,errachidia,31.9275,-4.4285,24.03,22,0,4.63,MA,1699622636
529,kone,-21.0595,164.8658,19.56,83,17,2.0,NC,1699622637
530,dutsin-ma,12.4517,7.4981,35.38,11,100,3.82,NG,1699622638
531,hilo,19.7297,-155.09,22.38,78,75,4.12,US,1699622639
532,masterton,-40.9597,175.6575,2.59,95,0,0.69,NZ,1699622640
533,baidoa,3.1138,43.6498,31.56,41,43,4.7,SO,1699622641
534,manokwari,-0.8667,134.0833,26.73,83,97,3.03,ID,1699622643
535,peace river,56.2501,-117.286,2.03,82,100,1.54,CA,1699622644
536,sao joao da barra,-21.6403,-41.0511,32.05,57,0,3.27,BR,1699622645
537,dali,25.7,100.1833,11.43,66,0,2.0,CN,1699622647
538,sur,22.5667,59.5289,27.4,64,0,4.98,OM,1699622625
539,castillos,-34.1667,-53.8333,18.69,56,78,5.63,UY,1699622649
540,anse la raye,13.9333,-61.0333,28.8,82,75,5.14,LC,1699622650
541,oodweyne,9.4092,45.064,27.14,31,100,6.61,SO,1699622651
542,ulsteinvik,62.3432,5.8487,8.2,71,100,0.89,NO,1699622652
543,vilyuysk,63.7553,121.6247,-21.02,100,100,0.34,RU,1699622653
544,kikwit,-5.041,18.8162,25.35,85,100,1.95,CD,1699622654
545,zarinsk,53.7074,84.9493,-4.68,97,92,1.83,RU,1699622655
546,klaksvik,62.2266,-6.589,7.51,82,60,7.49,FO,1699622656
547,arraial do cabo,-22.9661,-42.0278,26.92,74,0,7.2,BR,1699622657
548,hassi messaoud,31.6804,6.0729,23.92,35,0,4.12,DZ,1699622658
549,faya-largeau,17.9257,19.1043,36.94,13,0,6.17,TD,1699622659
550,ambon,-3.6954,128.1814,27.82,13,20,3.6,ID,1699622660
551,tura,25.5198,90.2201,19.12,91,0,1.44,IN,1699622661
552,nay pyi taw,19.745,96.1297,24.79,83,2,1.03,MM,1699622558
553,cascavel,-24.9558,-53.4553,26.91,64,5,5.18,BR,1699622663
554,dauphin,51.1494,-100.0502,-1.92,93,100,2.57,CA,1699622664
555,viedma,-40.8135,-62.9967,25.46,25,100,11.48,AR,1699622511
556,fisterra,42.9049,-9.2629,14.3,88,100,9.4,ES,1699622666
557,san julian,21.0167,-102.1667,13.39,86,43,1.32,MX,1699622667
558,portage la prairie,49.9728,-98.2926,-1.95,85,100,2.57,CA,1699622668
559,saint helens,53.45,-2.7333,10.12,78,40,5.14,GB,1699622669
560,den burg,53.0542,4.7972,8.98,89,100,4.12,NL,1699622670
561,goondiwindi,-28.55,150.3167,20.46,70,0,7.56,AU,1699622671
562,new plymouth,-39.0667,174.0833,9.06,66,0,3.16,NZ,1699622527
563,toccoa,34.5773,-83.3324,17.94,88,0,2.06,US,1699622672
564,mareeba,-17.0,145.4333,21.4,88,19,1.0,AU,1699622674
565,holualoa,19.6228,-155.9522,22.1,82,20,1.79,US,1699622675
566,pavilosta,56.8879,21.1859,7.95,88,100,6.59,LV,1699622676
567,chernyshevskiy,63.0128,112.4714,-15.13,97,100,1.52,RU,1699622677
568,tefe,-3.3542,-64.7114,30.06,70,0,1.54,BR,1699622678
569,lazarevskoye,43.9061,39.3331,13.66,55,0,0.83,RU,1699622679
570,calvinia,-31.4707,19.776,36.05,8,6,7.78,ZA,1699622680
571,ust-tsilma,65.441,52.1498,-5.22,97,32,0.45,RU,1699622681
572,cannonvale,-20.2833,148.7,23.66,80,25,5.54,AU,1699622684
573,puerto cabezas,14.0351,-83.3888,25.98,94,75,2.06,NI,1699622390
574,berdigestyakh,62.0989,126.6992,-25.13,100,99,0.3,RU,1699622687
575,worland,44.0169,-107.9554,-1.36,86,0,2.06,US,1699622688
576,kidal,18.4411,1.4078,35.4,7,1,3.13,ML,1699622689
577,lucaya,26.5333,-78.6667,24.96,94,75,1.54,BS,1699622691
578,shihezi,44.3,86.0333,6.04,82,100,2.33,CN,1699622692
579,kalabo,-14.97,22.6814,30.25,40,62,2.99,ZM,1699622693
580,reynosa,26.0833,-98.2833,19.01,89,100,7.72,MX,1699622694
581,hue,16.4667,107.6,28.06,83,40,2.06,VN,1699622694
